<?xml version="1.0" encoding="UTF-8" standalone="no"?><gpx xmlns="http://www.topografix.com/GPX/1/1" creator="GoingElectric.de" version="1.1" xmlns:xsi="http://www.w3.org/2001/XMLSchema-instance" xsi:schemaLocation="http://www.topografix.com/GPX/1/1 http://www.topografix.com/GPX/1/1/gpx.xsd"><wpt lat="51.939637" lon="6.181513"><name><![CDATA[50kW Fastned in Didam]]></name><desc><![CDATA[Fastned Geulenkamp, 6942 Didam - Geulenkamp, 1 x Typ 2 Stecker 43kW, 1 x Typ 2 Dose 22kW, 2 x CHAdeMO 50kW, 2 x Combo Typ 2 (CCS) EU 50kW, 24/7]]></desc></wpt><wpt lat="51.683506" lon="5.893618"><name><![CDATA[50kW Fastned in Haps]]></name><desc><![CDATA[Fastned Hondsiep, 5443 Haps - Hondsiep, 1 x Typ 2 Stecker 43kW, 1 x Typ 2 Dose 22kW, 2 x CHAdeMO 50kW, 2 x Combo Typ 2 (CCS) EU 50kW, 24/7]]></desc></wpt><wpt lat="51.684258" lon="5.890938"><name><![CDATA[50kW Fastned in Haps]]></name><desc><![CDATA[Fastned Lokkant, 5443 Haps - Lokkant, 1 x Typ 2 Stecker 43kW, 1 x Typ 2 Dose 22kW, 2 x CHAdeMO 50kW, 2 x Combo Typ 2 (CCS) EU 50kW, 24/7]]></desc></wpt><wpt lat="52.679187" lon="6.358913"><name><![CDATA[50kW Fastned in Veeningen]]></name><desc><![CDATA[Fastned Lageveen, 7924 Veeningen - Rijksweg A28ZZ, 2 x Typ 2 Stecker 43kW, 1 x Typ 2 Dose 22kW, 3 x CHAdeMO 50kW, 2 x Combo Typ 2 (CCS) EU 50kW, 24/7]]></desc></wpt><wpt lat="52.395992" lon="6.013317"><name><![CDATA[50kW Fastned in Heerde]]></name><desc><![CDATA[Fastned B.V.
Amsteldijk 166
1079 LH Amsterdam, Fastned Het Veen, 8181 Heerde - Rijksweg A50, 1 x Typ 2 Stecker 43kW, 1 x Typ 2 Dose 22kW, 2 x CHAdeMO 50kW, 2 x Combo Typ 2 (CCS) EU 50kW, 24/7]]></desc></wpt><wpt lat="52.682726" lon="6.369038"><name><![CDATA[50kW Fastned in Veeningen]]></name><desc><![CDATA[Fastned Panjerd, 9724 Veeningen - Rijksweg A28, 2 x Typ 2 Stecker 43kW, 1 x Typ 2 Dose 22kW, 3 x CHAdeMO 50kW, 2 x Combo Typ 2 (CCS) EU 50kW, 24/7]]></desc></wpt><wpt lat="52.451621" lon="5.977877"><name><![CDATA[300kW Fastned in Wezep]]></name><desc><![CDATA[Fastned Bornheim, 8091 Wezep - Bornheim, 2 x Typ 2 Stecker 43kW, 2 x CHAdeMO 50kW, 2 x Combo Typ 2 (CCS) EU 50kW, 2 x Combo Typ 2 (CCS) EU 300kW, 24/7]]></desc></wpt><wpt lat="52.163009" lon="5.536420"><name><![CDATA[300kW Fastned in Terschuur]]></name><desc><![CDATA[Fastned Palmpol, 3784 WJ Terschuur - Rijksweg A1 11, 4 x Combo Typ 2 (CCS) EU 300kW, 2 x Combo Typ 2 (CCS) EU 50kW, 2 x CHAdeMO 50kW, 2 x Typ 2 Stecker 38kW, 24/7]]></desc></wpt><wpt lat="52.208977" lon="6.092922"><name><![CDATA[300kW Fastned in Wilp]]></name><desc><![CDATA[Fastned Vundelaar, 7384 Wilp - Vundelaar, 2 x Typ 2 Stecker 43kW, 2 x CHAdeMO 50kW, 2 x Combo Typ 2 (CCS) EU 50kW, 4 x Combo Typ 2 (CCS) EU 300kW, 24/7]]></desc></wpt><wpt lat="53.161569" lon="6.293619"><name><![CDATA[50kW Fastned in Marum]]></name><desc><![CDATA[Fastned Mienscheer, 9363 Marum - Mienscheer, 2 x Typ 2 Stecker 43kW, 2 x CHAdeMO 50kW, 2 x Combo Typ 2 (CCS) EU 50kW, 24/7]]></desc></wpt><wpt lat="53.147919" lon="6.604457"><name><![CDATA[50kW Fastned in Haren]]></name><desc><![CDATA[Fastned Witte Molen, 9752 Haren - A28, 2 x Typ 2 Stecker 43kW, 2 x CHAdeMO 50kW, 2 x Combo Typ 2 (CCS) EU 50kW, 24/7]]></desc></wpt><wpt lat="52.711754" lon="5.028906"><name><![CDATA[50kW Fastned in Benningbroek]]></name><desc><![CDATA[Fastned Broerdijk, 1654 Benningbroek - Rijksweg 20, 2 x Typ 2 Stecker 43kW, 2 x CHAdeMO 50kW, 2 x Combo Typ 2 (CCS) EU 50kW, 24/7]]></desc></wpt><wpt lat="52.198168" lon="4.471566"><name><![CDATA[50kW Fastned in Oegstgeest]]></name><desc><![CDATA[Fastned Elsgeest, 2343 Oegstgeest - Elsgeest, 2 x Typ 2 Stecker 43kW, 3 x CHAdeMO 50kW, 3 x Combo Typ 2 (CCS) EU 50kW, 24/7]]></desc></wpt><wpt lat="52.051748" lon="4.436271"><name><![CDATA[300kW Fastned in Zoetermeer]]></name><desc><![CDATA[Fastned Knorrestein, 2716 Zoetermeer - Knorrestein, 1 x Typ 2 Stecker 43kW, 3 x CHAdeMO 50kW, 2 x Combo Typ 2 (CCS) EU 50kW, 4 x Combo Typ 2 (CCS) EU 300kW, 24/7]]></desc></wpt><wpt lat="51.734103" lon="4.632086"><name><![CDATA[50kW Fastned in Dordrecht]]></name><desc><![CDATA[Fastned de Zuidpunt, 3316 Dordrecht - De Zuidpunt, 2 x Typ 2 Stecker 43kW, 2 x CHAdeMO 50kW, 2 x Combo Typ 2 (CCS) EU 50kW, 24/7]]></desc></wpt><wpt lat="51.010487" lon="5.800454"><name><![CDATA[300kW Fastned in Geleen]]></name><desc><![CDATA[Fastned Swentibold, 6167 RE Geleen - A2, 2 x Typ 2 Stecker 38kW, 2 x CHAdeMO 50kW, 2 x Combo Typ 2 (CCS) EU 50kW, 4 x Combo Typ 2 (CCS) EU 300kW, 1 x CHAdeMO 60kW, 24/7]]></desc></wpt><wpt lat="51.737256" lon="4.410053"><name><![CDATA[300kW Fastned in Numansdorp]]></name><desc><![CDATA[Fastned Buttervliet, 3281 Numansdorp - Rijksweg A29, 2 x Typ 2 Stecker 38kW, 3 x CHAdeMO 50kW, 2 x Combo Typ 2 (CCS) EU 50kW, 4 x Combo Typ 2 (CCS) EU 300kW, 24/7]]></desc></wpt><wpt lat="50.786021" lon="5.727814"><name><![CDATA[50kW Fastned in Eijsden]]></name><desc><![CDATA[Über Fastned App freizuschalten, Fastned Knuvelkes, 6245 Eijsden - Knuvelkes, 3 x Typ 2 Stecker 43kW, 3 x CHAdeMO 50kW, 3 x Combo Typ 2 (CCS) EU 50kW, 24/7]]></desc></wpt><wpt lat="50.776891" lon="5.729697"><name><![CDATA[50kW Fastned in Eijsden]]></name><desc><![CDATA[Fastned Patiel, 6245 Eijsden - Patiel, 2 x Typ 2 Stecker 43kW, 2 x CHAdeMO 50kW, 2 x Combo Typ 2 (CCS) EU 50kW, 24/7]]></desc></wpt><wpt lat="51.558956" lon="5.356983"><name><![CDATA[300kW Fastned in Liempde]]></name><desc><![CDATA[Fastned Velder, 5298 MC Liempde - Velder, 1 x Typ 2 Stecker 43kW, 2 x CHAdeMO 50kW, 2 x Combo Typ 2 (CCS) EU 50kW, 4 x Combo Typ 2 (CCS) EU 300kW, 24/7]]></desc></wpt><wpt lat="52.286971" lon="6.861025"><name><![CDATA[50kW Fastned in Deurningen]]></name><desc><![CDATA[Het Veelsveld, 7561 Deurningen - E30, 2 x Typ 2 Stecker 43kW, 2 x CHAdeMO 50kW, 2 x Combo Typ 2 (CCS) EU 50kW, 24/7]]></desc></wpt><wpt lat="51.220772" lon="5.808935"><name><![CDATA[50kW Fastned in Ell]]></name><desc><![CDATA[Fastned Ellerbrug, 6011 Ell - Ellerbrug, 2 x Typ 2 Stecker 43kW, 3 x CHAdeMO 50kW, 3 x Combo Typ 2 (CCS) EU 50kW, 24/7]]></desc></wpt><wpt lat="52.915665" lon="5.982501"><name><![CDATA[50kW Fastned in Oldeholtwolde]]></name><desc><![CDATA[Fastned de Weeren, 8477 Oldeholtwolde - De weeren, 2 x Typ 2 Stecker 43kW, 2 x CHAdeMO 50kW, 2 x Combo Typ 2 (CCS) EU 50kW, 24/7]]></desc></wpt><wpt lat="52.281387" lon="6.852678"><name><![CDATA[50kW Fastned in Deurningen]]></name><desc><![CDATA[Fastned Het Lonnekermeer, 7561 VA Deurningen - Rijksweg A1 1, 3 x Typ 2 Stecker 43kW, 3 x CHAdeMO 50kW, 3 x Combo Typ 2 (CCS) EU 50kW, 24/7]]></desc></wpt><wpt lat="52.015980" lon="5.120554"><name><![CDATA[150kW Fastned in Nieuwegein]]></name><desc><![CDATA[Fastned De Kroon, 3433 NK Nieuwegein - De Kroon, 4 x Combo Typ 2 (CCS) EU 150kW, 2 x CHAdeMO 50kW, 24/7]]></desc></wpt><wpt lat="52.264095" lon="5.256140"><name><![CDATA[50kW Fastned in Eemnes]]></name><desc><![CDATA[Fastned Eemakker, 3755 AC Eemnes - Eemakker, 2 x Typ 2 Stecker 43kW, 3 x CHAdeMO 50kW, 3 x Combo Typ 2 (CCS) EU 50kW, 24/7]]></desc></wpt><wpt lat="52.581280" lon="4.977854"><name><![CDATA[50kW Fastned in Noordbeemster]]></name><desc><![CDATA[Fastned Kruisoord, 1463 LP Noordbeemster - Kruisoord A7, 2 x Typ 2 Stecker 43kW, 2 x CHAdeMO 50kW, 2 x Combo Typ 2 (CCS) EU 50kW, 24/7]]></desc></wpt><wpt lat="53.129242" lon="5.804554"><name><![CDATA[50kW Fastned in Wirdum]]></name><desc><![CDATA[Fastned Mandelan, 9088 CC Wirdum - Mandelân, 2 x Typ 2 Stecker 43kW, 2 x CHAdeMO 50kW, 2 x Combo Typ 2 (CCS) EU 50kW, 24/7]]></desc></wpt><wpt lat="52.739253" lon="5.028842"><name><![CDATA[50kW Fastned in Abbekerk]]></name><desc><![CDATA[Fastned de Horn, 1657 Abbekerk - A7 südgehend, 2 x Typ 2 Stecker 43kW, 2 x CHAdeMO 50kW, 2 x Combo Typ 2 (CCS) EU 50kW, 24/7]]></desc></wpt><wpt lat="51.850730" lon="4.679834"><name><![CDATA[50kW Fastned in Alblasserdam]]></name><desc><![CDATA[Fastned, 2952 Alblasserdam - A15 nordgehend bei Shell, 2 x Typ 2 Stecker 43kW, 2 x CHAdeMO 50kW, 2 x Combo Typ 2 (CCS) EU 50kW, 24/7]]></desc></wpt><wpt lat="52.007408" lon="5.812303"><name><![CDATA[300kW Fastned in Arnhem]]></name><desc><![CDATA[Fastned De Slenk, 6816 Arnhem - A50 nordgehend bei Texaco, 1 x Typ 2 Stecker 43kW, 2 x CHAdeMO 50kW, 1 x Combo Typ 2 (CCS) EU 50kW, 4 x Combo Typ 2 (CCS) EU 300kW, 24/7]]></desc></wpt><wpt lat="52.063686" lon="5.612007"><name><![CDATA[300kW Fastned in Ede]]></name><desc><![CDATA[Fastned de Poel, 6718 Ede - A30 nordgehend bei BP, 2 x Typ 2 Stecker 43kW, 2 x CHAdeMO 50kW, 2 x Combo Typ 2 (CCS) EU 50kW, 2 x Combo Typ 2 (CCS) EU 300kW, 24/7]]></desc></wpt><wpt lat="52.063994" lon="5.608904"><name><![CDATA[300kW Fastned in Ede]]></name><desc><![CDATA[Fastned de Veenen, 6718 Ede - A30 südgehend bei BP, 2 x Typ 2 Stecker 43kW, 2 x CHAdeMO 50kW, 2 x Combo Typ 2 (CCS) EU 50kW, 2 x Combo Typ 2 (CCS) EU 300kW, 24/7]]></desc></wpt><wpt lat="52.170780" lon="6.025800"><name><![CDATA[150kW Fastned in Apeldoorn]]></name><desc><![CDATA[Fastned de Brink, 7381 Apeldoorn - A50 südgehend bei Texaco, 4 x Combo Typ 2 (CCS) EU 150kW, 2 x CHAdeMO 50kW, 24/7]]></desc></wpt><wpt lat="52.166188" lon="6.026081"><name><![CDATA[50kW Fastned in Apeldoorn]]></name><desc><![CDATA[Fastned de Somp, 7381 Apeldoorn - A50 nordgehend bei Shell, 2 x Typ 2 Stecker 43kW, 3 x CHAdeMO 50kW, 3 x Combo Typ 2 (CCS) EU 50kW, 24/7]]></desc></wpt><wpt lat="52.079311" lon="4.981259"><name><![CDATA[50kW Fastned in Harmelen]]></name><desc><![CDATA[Fastned Bijleveld, 3481 Harmelen - Rijksweg A12 km 50,7, 2 x Typ 2 Stecker 43kW, 3 x CHAdeMO 50kW, 3 x Combo Typ 2 (CCS) EU 50kW, 24/7]]></desc></wpt><wpt lat="51.746858" lon="4.921931"><name><![CDATA[150kW Fastned in Hank]]></name><desc><![CDATA[Fastned de Keizer, 4273 Hank - Rijksweg A27 km 24,7, 1 x Typ 2 Stecker 43kW, 2 x CHAdeMO 50kW, 1 x Combo Typ 2 (CCS) EU 50kW, 2 x Combo Typ 2 (CCS) EU 150kW, 24/7]]></desc></wpt><wpt lat="52.049904" lon="5.461528"><name><![CDATA[175kW Fastned in Woudenberg]]></name><desc><![CDATA[Bloemheuvel, 3931 Woudenberg - A12 km 84,9, 2 x Typ 2 Stecker 43kW, 3 x CHAdeMO 50kW, 1 x Combo Typ 2 (CCS) EU 175kW, 2 x Combo Typ 2 (CCS) EU 50kW, 24/7]]></desc></wpt><wpt lat="53.203737" lon="5.682606"><name><![CDATA[50kW Fastned in Menaam]]></name><desc><![CDATA[Fastned de Mieden, 9036 JB Menaam - De Mieden 1, 2 x Typ 2 Stecker 43kW, 2 x CHAdeMO 50kW, 2 x Combo Typ 2 (CCS) EU 50kW, 24/7]]></desc></wpt><wpt lat="52.545992" lon="4.957362"><name><![CDATA[50kW Fastned in Middenbeemster]]></name><desc><![CDATA[Fastned Middelsloot, 1462 Middenbeemster - Rijksweg 7, 2 x Typ 2 Stecker 43kW, 2 x CHAdeMO 50kW, 2 x Combo Typ 2 (CCS) EU 50kW, 24/7]]></desc></wpt><wpt lat="51.734562" lon="5.492959"><name><![CDATA[50kW Fastned in Heesch]]></name><desc><![CDATA[Fastned De Geffense Barriere, 5384 Heesch - Barriere, 2 x Typ 2 Stecker 43kW, 3 x CHAdeMO 50kW, 3 x Combo Typ 2 (CCS) EU 50kW, 24/7]]></desc></wpt><wpt lat="51.556320" lon="5.361945"><name><![CDATA[300kW Fastned in Liempde]]></name><desc><![CDATA[Fastned Ooiendonk, 5298 Liempde - Ooiendonk, 2 x Typ 2 Stecker 38kW, 3 x CHAdeMO 50kW, 2 x Combo Typ 2 (CCS) EU 50kW, 4 x Combo Typ 2 (CCS) EU 300kW, 24/7]]></desc></wpt><wpt lat="51.911959" lon="4.984946"><name><![CDATA[50kW Fastned in Meerkerk]]></name><desc><![CDATA[Fastned Blommendaal, 4231EE Meerkerk - A27, 2 x Typ 2 Stecker 43kW, 2 x CHAdeMO 50kW, 2 x Combo Typ 2 (CCS) EU 50kW, 24/7]]></desc></wpt><wpt lat="52.185680" lon="5.890490"><name><![CDATA[50kW Fastned in Ugchelen]]></name><desc><![CDATA[Fastned de Hucht, 7339ET Ugchelen - A1, 2 x Typ 2 Stecker 43kW, 2 x CHAdeMO 50kW, 2 x Combo Typ 2 (CCS) EU 50kW, 24/7]]></desc></wpt><wpt lat="51.832195" lon="4.881382"><name><![CDATA[150kW Fastned in Hardinxveld-Giessendam]]></name><desc><![CDATA[Fastned Den Bout, 3371GX Hardinxveld-Giessendam - A15, 1 x Typ 2 Stecker 43kW, 2 x CHAdeMO 50kW, 1 x Combo Typ 2 (CCS) EU 50kW, 2 x Combo Typ 2 (CCS) EU 150kW, 24/7]]></desc></wpt><wpt lat="52.162899" lon="4.554053"><name><![CDATA[175kW Fastned in Leiderdorp]]></name><desc><![CDATA[Fastned Bospoort, 2353 ZW Leiderdorp - Rijksweg, 2 x Typ 2 Stecker 43kW, 2 x CHAdeMO 50kW, 2 x Combo Typ 2 (CCS) EU 50kW, 2 x Combo Typ 2 (CCS) EU 175kW, 24/7]]></desc></wpt><wpt lat="52.039925" lon="4.706323"><name><![CDATA[175kW Fastned in Reeuwijk]]></name><desc><![CDATA[Fastned de Andel, 2811 NT Reeuwijk - De Andel, 2 x Typ 2 Stecker 43kW, 3 x CHAdeMO 50kW, 2 x Combo Typ 2 (CCS) EU 50kW, 2 x Combo Typ 2 (CCS) EU 175kW, 24/7]]></desc></wpt><wpt lat="52.498606" lon="4.698785"><name><![CDATA[150kW Fastned in Heemskerk]]></name><desc><![CDATA[Fastned Akermaat, 1967PT Heemskerk - Akermaat, 4 x Combo Typ 2 (CCS) EU 150kW, 2 x CHAdeMO 50kW, 24/7]]></desc></wpt><wpt lat="51.484297" lon="3.851018"><name><![CDATA[150kW Fastned in 's-Heer Arendskerke]]></name><desc><![CDATA[Fastned Vliedberg, 4458SM 's-Heer Arendskerke - Vliedberg, 4 x Combo Typ 2 (CCS) EU 150kW, 2 x CHAdeMO 50kW, 24/7]]></desc></wpt><wpt lat="51.498726" lon="3.771989"><name><![CDATA[150kW Fastned in 's-Heer Arendskerke]]></name><desc><![CDATA[Fastned Selnisse, 4458SN 's-Heer Arendskerke - Selnisse, 1 x Typ 2 Stecker 38kW, 2 x CHAdeMO 50kW, 1 x Combo Typ 2 (CCS) EU 50kW, 2 x Combo Typ 2 (CCS) EU 150kW, 24/7]]></desc></wpt><wpt lat="51.923948" lon="5.605240"><name><![CDATA[50kW Fastned in Opheusden]]></name><desc><![CDATA[Fastned Varakker, 4043 Opheusden - Varakker, 2 x Typ 2 Stecker 43kW, 2 x CHAdeMO 50kW, 2 x Combo Typ 2 (CCS) EU 50kW, 24/7]]></desc></wpt><wpt lat="51.921581" lon="5.603286"><name><![CDATA[50kW Fastned in Opheusden]]></name><desc><![CDATA[Fastned Overbroek, 4043 Opheusden - Overbroek, 2 x Typ 2 Stecker 43kW, 2 x CHAdeMO 50kW, 2 x Combo Typ 2 (CCS) EU 50kW, 24/7]]></desc></wpt><wpt lat="52.061100" lon="4.227515"><name><![CDATA[50kW Fastned in Den Haag]]></name><desc><![CDATA[Fastned Laan van Meerdervoort, 2555 BW Den Haag - Laan van Meerdervoort, 2 x Typ 2 Stecker 43kW, 2 x CHAdeMO 50kW, 2 x Combo Typ 2 (CCS) EU 50kW, 24/7]]></desc></wpt><wpt lat="51.967869" lon="4.589244"><name><![CDATA[300kW Fastned in Nieuwerkerk aan den IJssel]]></name><desc><![CDATA[Fastned Maatveld, 2913 LW Nieuwerkerk aan den IJssel - Rijksweg A20, 1 x Typ 2 Stecker 43kW, 2 x CHAdeMO 50kW, 1 x Combo Typ 2 (CCS) EU 50kW, 4 x Combo Typ 2 (CCS) EU 300kW, 24/7]]></desc></wpt><wpt lat="51.966015" lon="4.588874"><name><![CDATA[300kW Fastned in Nieuwerkerk aan den IJssel]]></name><desc><![CDATA[Fastned De Vink, 2913 Nieuwerkerk aan den IJssel - Rijksweg A20, 1 x Typ 2 Stecker 43kW, 2 x CHAdeMO 50kW, 1 x Combo Typ 2 (CCS) EU 50kW, 4 x Combo Typ 2 (CCS) EU 300kW, 24/7]]></desc></wpt><wpt lat="51.693989" lon="5.013502"><name><![CDATA[50kW Fastned in Sprang-Capelle]]></name><desc><![CDATA[Fastned Labbegat, 5161 PS Sprang-Capelle - Labbegat, 2 x Typ 2 Stecker 43kW, 2 x CHAdeMO 50kW, 2 x Combo Typ 2 (CCS) EU 50kW, 24/7]]></desc></wpt><wpt lat="52.098763" lon="4.346589"><name><![CDATA[50kW Fastned in Den Haag]]></name><desc><![CDATA[Fastned ten Bosch, 2594 BB Den Haag - Leidsestraatweg 45, 2 x Typ 2 Stecker 43kW, 2 x CHAdeMO 50kW, 2 x Combo Typ 2 (CCS) EU 50kW, 24/7]]></desc></wpt><wpt lat="51.676567" lon="4.827279"><name><![CDATA[50kW Fastned in Den Hout]]></name><desc><![CDATA[Fastned Steelhoven, 4911 BV Den Hout - Steelhoven 5, 2 x Typ 2 Stecker 43kW, 2 x CHAdeMO 50kW, 2 x Combo Typ 2 (CCS) EU 50kW, 24/7]]></desc></wpt><wpt lat="52.261459" lon="4.686238"><name><![CDATA[175kW Fastned in Hoofddorp]]></name><desc><![CDATA[Fastned Den Ruygen Hoek-West, 2132 MA Hoofddorp - Den Ruygen Hoek-West 7, 2 x Typ 2 Stecker 43kW, 7 x CHAdeMO 50kW, 2 x Combo Typ 2 (CCS) EU 175kW, 5 x Combo Typ 2 (CCS) EU 50kW, 24/7]]></desc></wpt><wpt lat="51.690643" lon="4.657594"><name><![CDATA[50kW Fastned in Zevenberschen Hoek]]></name><desc><![CDATA[Fastned Streepland, 4765 TK Zevenberschen Hoek - A16, 2 x Typ 2 Stecker 43kW, 2 x CHAdeMO 50kW, 2 x Combo Typ 2 (CCS) EU 50kW, 24/7]]></desc></wpt><wpt lat="52.435951" lon="5.424835"><name><![CDATA[175kW Fastned in Lelystad]]></name><desc><![CDATA[Fastned Aalscholver, 8218 PW Lelystad - A6, 2 x Typ 2 Stecker 43kW, 3 x CHAdeMO 50kW, 2 x Combo Typ 2 (CCS) EU 50kW, 2 x Combo Typ 2 (CCS) EU 175kW, 24/7]]></desc></wpt><wpt lat="52.432751" lon="5.422775"><name><![CDATA[175kW Fastned in Lelystad]]></name><desc><![CDATA[Fastned Lepelaar, 8218 PX Lelystad - Lepelaar 1, 2 x Typ 2 Stecker 43kW, 2 x CHAdeMO 50kW, 2 x Combo Typ 2 (CCS) EU 50kW, 2 x Combo Typ 2 (CCS) EU 175kW, 24/7]]></desc></wpt><wpt lat="52.385208" lon="4.661683"><name><![CDATA[175kW Fastned in Haarlem]]></name><desc><![CDATA[Fastned Fustweg, 2031 CJ Haarlem - Fustweg 1, 2 x Typ 2 Stecker 43kW, 2 x CHAdeMO 50kW, 2 x Combo Typ 2 (CCS) EU 50kW, 2 x Combo Typ 2 (CCS) EU 175kW, 24/7]]></desc></wpt><wpt lat="51.862652" lon="4.459803"><name><![CDATA[300kW Fastned in Rhoon]]></name><desc><![CDATA[Fastned Portland, 3161GP Rhoon - A15, 1 x Typ 2 Stecker 38kW, 2 x CHAdeMO 50kW, 1 x Combo Typ 2 (CCS) EU 50kW, 2 x Combo Typ 2 (CCS) EU 300kW, 24/7]]></desc></wpt><wpt lat="52.442147" lon="4.854632"><name><![CDATA[175kW Fastned in Oostzaan]]></name><desc><![CDATA[Fastned De Watering, 1511 HX Oostzaan - A8, 2 x Typ 2 Stecker 43kW, 2 x CHAdeMO 50kW, 2 x Combo Typ 2 (CCS) EU 50kW, 6 x Combo Typ 2 (CCS) EU 175kW, 24/7]]></desc></wpt><wpt lat="51.870594" lon="4.180445"><name><![CDATA[50kW Fastned in Vierpolders]]></name><desc><![CDATA[Fastned Coosenhoek, 3237 MC Vierpolders - N57, 2 x Typ 2 Stecker 43kW, 2 x CHAdeMO 50kW, 2 x Combo Typ 2 (CCS) EU 50kW, 24/7]]></desc></wpt><wpt lat="52.017696" lon="5.068462"><name><![CDATA[175kW Fastned in Nieuwegein]]></name><desc><![CDATA[Fastned Jutphaas, 3434 NT Nieuwegein - A2, 5 x Combo Typ 2 (CCS) EU 175kW, 2 x Combo Typ 2 (CCS) EU 50kW, 2 x CHAdeMO 50kW, 2 x Typ 2 Stecker 38kW, 24/7]]></desc></wpt><wpt lat="51.870244" lon="4.182421"><name><![CDATA[50kW Fastned in Vierpolders]]></name><desc><![CDATA[Fastned Tussenhoek, 3237 LS Vierpolders - N57, 2 x Typ 2 Stecker 43kW, 2 x CHAdeMO 50kW, 2 x Combo Typ 2 (CCS) EU 50kW, 24/7]]></desc></wpt><wpt lat="53.180916" lon="6.933538"><name><![CDATA[50kW Fastned in Scheemda]]></name><desc><![CDATA[Fastned Meedenertol, 9679 Scheemda - A7, 2 x Typ 2 Stecker 43kW, 2 x CHAdeMO 50kW, 2 x Combo Typ 2 (CCS) EU 50kW, 24/7]]></desc></wpt><wpt lat="53.032440" lon="6.021039"><name><![CDATA[50kW Fastned in Terwispel]]></name><desc><![CDATA[Fastned De Vonken, 8407 EC Terwispel - A7 12, 2 x Typ 2 Stecker 43kW, 2 x CHAdeMO 50kW, 2 x Combo Typ 2 (CCS) EU 50kW, 24/7]]></desc></wpt><wpt lat="53.182636" lon="6.931414"><name><![CDATA[50kW Fastned in Scheemda]]></name><desc><![CDATA[Fastned Roode Til, 9679 Scheemda - A7, 2 x Typ 2 Stecker 43kW, 2 x CHAdeMO 50kW, 2 x Combo Typ 2 (CCS) EU 50kW, 24/7]]></desc></wpt><wpt lat="51.662407" lon="4.678140"><name><![CDATA[175kW Fastned in Zevenbergschen Hoek]]></name><desc><![CDATA[Fastned Den Hoek, 4765 Zevenbergschen Hoek - A16, 1 x Typ 2 Stecker 43kW, 2 x CHAdeMO 50kW, 1 x Combo Typ 2 (CCS) EU 50kW, 2 x Combo Typ 2 (CCS) EU 175kW, 24/7]]></desc></wpt><wpt lat="50.380018" lon="8.092817"><name><![CDATA[300kW Fastned B.V. in Limburg an der Lahn]]></name><desc><![CDATA[Fastned Limburg Süd, 65552 Limburg an der Lahn - Brüsseler Straße 16, 1 x Typ 2 Stecker 43kW, 3 x CHAdeMO 50kW, 1 x Combo Typ 2 (CCS) EU 50kW, 4 x Combo Typ 2 (CCS) EU 300kW, 24/7]]></desc></wpt><wpt lat="52.857323" lon="5.021669"><name><![CDATA[175kW Fastned in Wieringerwerf]]></name><desc><![CDATA[Fastned Hoge Kwel, 1771 AC Wieringerwerf - A7, 1 x Typ 2 Stecker 43kW, 2 x CHAdeMO 50kW, 1 x Combo Typ 2 (CCS) EU 50kW, 2 x Combo Typ 2 (CCS) EU 175kW, 24/7]]></desc></wpt><wpt lat="52.784398" lon="5.759294"><name><![CDATA[175kW Fastned in Bant]]></name><desc><![CDATA[Fastned Wellerzand, 8314 Bant - Wellerzand, 1 x Typ 2 Stecker 43kW, 2 x CHAdeMO 50kW, 1 x Combo Typ 2 (CCS) EU 50kW, 2 x Combo Typ 2 (CCS) EU 175kW, 24/7]]></desc></wpt><wpt lat="52.818439" lon="5.742294"><name><![CDATA[175kW Fastned in Rutten]]></name><desc><![CDATA[Fastned Lemsterhop, HMP 294 Rutten - A6, 1 x Typ 2 Stecker 43kW, 2 x CHAdeMO 50kW, 1 x Combo Typ 2 (CCS) EU 50kW, 2 x Combo Typ 2 (CCS) EU 175kW, 24/7]]></desc></wpt><wpt lat="51.683578" lon="8.721583"><name><![CDATA[175kW Fastned in Paderborn]]></name><desc><![CDATA[Fastned Paderborn-Mönkeloh, 33106 Paderborn - Borchener Straße 320, 1 x Typ 2 Stecker 43kW, 1 x CHAdeMO 50kW, 1 x Combo Typ 2 (CCS) EU 50kW, 2 x Combo Typ 2 (CCS) EU 175kW, 24/7]]></desc></wpt><wpt lat="49.510086" lon="10.196021"><name><![CDATA[175kW Fastned in Uffenheim]]></name><desc><![CDATA[Fastned Shell Tankstelle, 97215 Uffenheim - Am Buchholz 2, 2 x Combo Typ 2 (CCS) EU 175kW, 1 x Typ 2 Stecker 38kW, 1 x CHAdeMO 50kW, 1 x Combo Typ 2 (CCS) EU 50kW, 24/7]]></desc></wpt><wpt lat="48.415955" lon="10.099417"><name><![CDATA[175kW Fastned in Nersingen]]></name><desc><![CDATA[An der Leibi, 89278 Nersingen - An der Leibi, 1 x Typ 2 Stecker 43kW, 1 x CHAdeMO 50kW, 1 x Combo Typ 2 (CCS) EU 50kW, 2 x Combo Typ 2 (CCS) EU 175kW, 24/7]]></desc></wpt><wpt lat="49.438038" lon="12.053504"><name><![CDATA[175kW Fastned in Schmidgaden]]></name><desc><![CDATA[Gewerbegebiet, 92546 Schmidgaden - Amberger Straße 2, 1 x Typ 2 Stecker 43kW, 1 x CHAdeMO 50kW, 1 x Combo Typ 2 (CCS) EU 50kW, 2 x Combo Typ 2 (CCS) EU 175kW, 24/7]]></desc></wpt><wpt lat="49.664135" lon="11.470740"><name><![CDATA[175kW Fastned Deutschland GmbH & Co. KG in Plech]]></name><desc><![CDATA[Gewerbepark Schönthal, 91287 Plech - Gewerbepark Schönthal 1, 1 x Combo Typ 2 (CCS) EU 50kW, 1 x CHAdeMO 50kW, 1 x Typ 2 Stecker 43kW, 3 x Combo Typ 2 (CCS) EU 175kW, 24/7]]></desc></wpt><wpt lat="52.160816" lon="9.996856"><name><![CDATA[350kW Fastned in Hildesheim]]></name><desc><![CDATA[Fastned, 31135 Hildesheim - Albert-Einstein-Straße 2, 1 x Typ 2 Stecker 43kW, 1 x CHAdeMO 50kW, 1 x Combo Typ 2 (CCS) EU 50kW, 2 x Combo Typ 2 (CCS) EU 350kW, 24/7]]></desc></wpt><wpt lat="51.562405" lon="5.074943"><name><![CDATA[50kW Fastned in Tilburg]]></name><desc><![CDATA[Albert Heijn XL, 5041 GB Tilburg - Jan Heijnsstraat 10, 2 x CHAdeMO 50kW, 2 x Combo Typ 2 (CCS) EU 50kW, 24/7]]></desc></wpt><wpt lat="48.226974" lon="7.755140"><name><![CDATA[175kW Fastned in Herbolzheim]]></name><desc><![CDATA[Fastned Autohof EuropaPark, 79336 Herbolzheim - Breisgauallee 2, 1 x Typ 2 Stecker 43kW, 1 x CHAdeMO 50kW, 1 x Combo Typ 2 (CCS) EU 50kW, 3 x Combo Typ 2 (CCS) EU 175kW, 24/7]]></desc></wpt><wpt lat="51.555188" lon="6.969590"><name><![CDATA[175kW Fastned in Gladbeck]]></name><desc><![CDATA[Fastned Van der Valk Hotel, 45964 Gladbeck - Bohmertstraße 335, 2 x CHAdeMO 50kW, 2 x Typ 2 Stecker 43kW, 2 x Combo Typ 2 (CCS) EU 50kW, 1 x Combo Typ 2 (CCS) EU 175kW, 24/7]]></desc></wpt><wpt lat="52.194676" lon="8.316407"><name><![CDATA[175kW Fastned in Melle]]></name><desc><![CDATA[Fastned Van der Valk Hotel, 49324 Melle - Wellingholzhausener Straße 7, 1 x Combo Typ 2 (CCS) EU 175kW, 2 x Typ 2 Stecker 43kW, 2 x Combo Typ 2 (CCS) EU 50kW, 2 x CHAdeMO 50kW, 24/7]]></desc></wpt><wpt lat="48.692018" lon="12.673252"><name><![CDATA[175kW Fastned in Pilsting]]></name><desc><![CDATA[Fastned Pilsting, 94431 Pilsting - Hietzinger Wiesen 4, 2 x Combo Typ 2 (CCS) EU 175kW, 1 x Typ 2 Stecker 43kW, 1 x Combo Typ 2 (CCS) EU 50kW, 1 x CHAdeMO 50kW, 24/7]]></desc></wpt><wpt lat="52.051277" lon="5.465643"><name><![CDATA[175kW Fastned in Woudenberg]]></name><desc><![CDATA[Fastned Rastplatz Oudenhorst, 3931 PD Woudenberg - A12, 3 x Combo Typ 2 (CCS) EU 175kW, 1 x Typ 2 Stecker 38kW, 1 x Combo Typ 2 (CCS) EU 50kW, 1 x CHAdeMO 50kW, 24/7]]></desc></wpt><wpt lat="54.909200" lon="-1.377400"><name><![CDATA[175kW Fastned in Sunderland]]></name><desc><![CDATA[West Wear Street, SR1 1XS Sunderland - West Wear Street, 4 x Typ 2 Stecker 38kW, 4 x Combo Typ 2 (CCS) EU 50kW, 6 x CHAdeMO 50kW, 2 x Combo Typ 2 (CCS) EU 175kW, 24/7]]></desc></wpt><wpt lat="51.547793" lon="4.530707"><name><![CDATA[175kW Fastned in Rucphen]]></name><desc><![CDATA[Fastned Mastpolder, 4715 TA Rucphen - A58, 1 x Typ 2 Stecker 38kW, 1 x CHAdeMO 50kW, 1 x Combo Typ 2 (CCS) EU 50kW, 3 x Combo Typ 2 (CCS) EU 175kW, 24/7]]></desc></wpt><wpt lat="51.548880" lon="4.529033"><name><![CDATA[175kW Fastned in Zegge]]></name><desc><![CDATA[Fastned Hoezaar, 4735 TX Zegge - A58, 1 x Typ 2 Stecker 38kW, 1 x CHAdeMO 50kW, 1 x Combo Typ 2 (CCS) EU 50kW, 3 x Combo Typ 2 (CCS) EU 175kW, 24/7]]></desc></wpt><wpt lat="52.055176" lon="4.391116"><name><![CDATA[175kW Fastned in Den Haag]]></name><desc><![CDATA[P+R Den Haag-Ypenburg, 2496 Den Haag - Prinses Máximaplein, 3 x Combo Typ 2 (CCS) EU 175kW, 1 x Combo Typ 2 (CCS) EU 50kW, 1 x CHAdeMO 50kW, 1 x Typ 2 Stecker 38kW, 24/7]]></desc></wpt><wpt lat="48.615619" lon="10.205760"><name><![CDATA[175kW Fastned in Giengen an der Brenz]]></name><desc><![CDATA[Fastned, 89537 Giengen an der Brenz - Am Bühlfeld 9, 2 x Combo Typ 2 (CCS) EU 175kW, 1 x Typ 2 Stecker 38kW, 1 x Combo Typ 2 (CCS) EU 50kW, 1 x CHAdeMO 50kW, 24/7]]></desc></wpt><wpt lat="51.948944" lon="13.787606"><name><![CDATA[175kW Fastned B.V. in Bersteland]]></name><desc><![CDATA[Fastned Van der Valk, 15910 Bersteland - Rickshausen 1, 1 x Combo Typ 2 (CCS) EU 50kW, 1 x CHAdeMO 50kW, 1 x Typ 2 Stecker 43kW, 1 x Combo Typ 2 (CCS) EU 175kW, 24/7]]></desc></wpt><wpt lat="52.014320" lon="5.122453"><name><![CDATA[175kW Fastned in Nieuwegein]]></name><desc><![CDATA[Fastned De Knoest, 3433 Nieuwegein - A27, 1 x Typ 2 Stecker 38kW, 1 x CHAdeMO 50kW, 1 x Combo Typ 2 (CCS) EU 50kW, 2 x Combo Typ 2 (CCS) EU 175kW, 24/7]]></desc></wpt><wpt lat="51.497853" lon="4.743375"><name><![CDATA[175kW Fastned in Breda]]></name><desc><![CDATA[Fastned Hazeldonk-Oost, 4836 LB Breda - Hazeldonk 105, 1 x CHAdeMO 50kW, 1 x Combo Typ 2 (CCS) EU 50kW, 1 x Typ 2 Stecker 38kW, 3 x Combo Typ 2 (CCS) EU 175kW, 24/7]]></desc></wpt><wpt lat="51.983308" lon="4.392652"><name><![CDATA[175kW Fastned in Delft]]></name><desc><![CDATA[Fastned Vrijenban, 2629 HA Delft - A13, 1 x CHAdeMO 50kW, 1 x Combo Typ 2 (CCS) EU 50kW, 1 x Typ 2 Stecker 38kW, 3 x Combo Typ 2 (CCS) EU 175kW, 24/7]]></desc></wpt><wpt lat="53.507399" lon="11.097256"><name><![CDATA[175kW Fastned in Amt Wittenburg]]></name><desc><![CDATA[Fastned Alpincenter Wittenburg, 19243 Amt Wittenburg - Zur Winterwelt 1, 1 x Combo Typ 2 (CCS) EU 175kW, 1 x Combo Typ 2 (CCS) EU 50kW, 1 x CHAdeMO 50kW, 1 x Typ 2 Stecker 43kW, 24/7]]></desc></wpt><wpt lat="53.157290" lon="12.451115"><name><![CDATA[175kW Fastned in Wittstock/Dosse]]></name><desc><![CDATA[Fastned Wittstock, 16909 Wittstock/Dosse - Hamburger Straße 7, 1 x Typ 2 Stecker 43kW, 1 x CHAdeMO 50kW, 1 x Combo Typ 2 (CCS) EU 50kW, 2 x Combo Typ 2 (CCS) EU 175kW, 24/7]]></desc></wpt><wpt lat="51.500448" lon="4.741419"><name><![CDATA[175kW Fastned in Breda]]></name><desc><![CDATA[Fastned Hazeldonk-West, 4836 Breda - Hazeldonk 5002, 1 x CHAdeMO 50kW, 1 x Typ 2 Stecker 38kW, 1 x Combo Typ 2 (CCS) EU 50kW, 3 x Combo Typ 2 (CCS) EU 175kW, 24/7]]></desc></wpt><wpt lat="51.847543" lon="5.190646"><name><![CDATA[175kW Fastned in Hellouw]]></name><desc><![CDATA[Fastned Molenkamp, 4174 Hellouw - Rijksweg A15, 1 x CHAdeMO 50kW, 1 x Combo Typ 2 (CCS) EU 50kW, 1 x Typ 2 Stecker 38kW, 2 x Combo Typ 2 (CCS) EU 175kW, 24/7]]></desc></wpt><wpt lat="51.849048" lon="5.191457"><name><![CDATA[175kW Fastned in Rumpt]]></name><desc><![CDATA[Fastned Eigenblok, 4156 Rumpt - Rijksweg A15, 1 x CHAdeMO 50kW, 1 x Combo Typ 2 (CCS) EU 50kW, 1 x Typ 2 Stecker 38kW, 2 x Combo Typ 2 (CCS) EU 175kW, 24/7]]></desc></wpt><wpt lat="51.964630" lon="5.892390"><name><![CDATA[175kW Fastned in Arnhem]]></name><desc><![CDATA[Fastned Gelredome, 6842 Arnhem - Batavierenweg 29, 1 x CHAdeMO 50kW, 1 x Combo Typ 2 (CCS) EU 50kW, 1 x Typ 2 Stecker 38kW, 3 x Combo Typ 2 (CCS) EU 175kW, 24/7]]></desc></wpt><wpt lat="52.320265" lon="5.077462"><name><![CDATA[175kW Fastned in Muiden]]></name><desc><![CDATA[Fastned Honswijck, 1398 PZ Muiden - A1, 2 x Typ 2 Stecker 38kW, 2 x CHAdeMO 50kW, 2 x Combo Typ 2 (CCS) EU 50kW, 4 x Combo Typ 2 (CCS) EU 175kW, 24/7]]></desc></wpt><wpt lat="52.259472" lon="4.687514"><name><![CDATA[175kW Fastned in Rijsenhout]]></name><desc><![CDATA[Fastned Den Ruygen Hoek-Oost, 1435 Rijsenhout - Den Ruygen Hoek, 4 x Combo Typ 2 (CCS) EU 175kW, 2 x Typ 2 Stecker 38kW, 4 x CHAdeMO 50kW, 4 x Combo Typ 2 (CCS) EU 50kW, 24/7]]></desc></wpt><wpt lat="52.079552" lon="4.334302"><name><![CDATA[50kW Fastned in Den Haag]]></name><desc><![CDATA[Fastned Beatrixkwartier, 2595 AK Den Haag - Jan Pietersz. Coenstraat 7, 2 x CHAdeMO 50kW, 2 x Combo Typ 2 (CCS) EU 50kW, 2 x Typ 2 Stecker 43kW, 24/7]]></desc></wpt><wpt lat="51.834810" lon="4.620889"><name><![CDATA[175kW Fastned in Hendrik-Ido-Ambacht]]></name><desc><![CDATA[Fastned Sandelingen-Oost, 3342 LE Hendrik-Ido-Ambacht - Sandelingen-Oost 2, 1 x Typ 2 Stecker 43kW, 1 x CHAdeMO 50kW, 1 x Combo Typ 2 (CCS) EU 50kW, 2 x Combo Typ 2 (CCS) EU 175kW, 24/7]]></desc></wpt><wpt lat="52.321727" lon="5.084577"><name><![CDATA[300kW Fastned in Muiden]]></name><desc><![CDATA[Fastned de Hackelaar, 1398 PW Muiden - A1, 2 x Combo Typ 2 (CCS) EU 50kW, 2 x CHAdeMO 50kW, 2 x Combo Typ 2 (CCS) EU 175kW, 2 x Combo Typ 2 (CCS) EU 300kW, 24/7]]></desc></wpt><wpt lat="52.363625" lon="5.767409"><name><![CDATA[175kW Fastned in Nunspeet]]></name><desc><![CDATA[Fastned Hendriksbos, 8077 SV Nunspeet - A28, 3 x Combo Typ 2 (CCS) EU 175kW, 1 x CHAdeMO 50kW, 1 x Combo Typ 2 (CCS) EU 50kW, 24/7]]></desc></wpt><wpt lat="52.049868" lon="5.121994"><name><![CDATA[175kW Fastned in Nieuwegein]]></name><desc><![CDATA[Fastned Ravensewetering, 3439 ZZ Nieuwegein - Ravensewetering 1, 1 x CHAdeMO 50kW, 1 x Combo Typ 2 (CCS) EU 50kW, 3 x Combo Typ 2 (CCS) EU 175kW, 24/7]]></desc></wpt><wpt lat="52.360565" lon="5.766686"><name><![CDATA[175kW Fastned in Hulshorst]]></name><desc><![CDATA[Fastned Willemsbos, 8077 PZ Hulshorst - A28, 1 x CHAdeMO 50kW, 1 x Combo Typ 2 (CCS) EU 50kW, 3 x Combo Typ 2 (CCS) EU 175kW, 24/7]]></desc></wpt><wpt lat="51.434160" lon="5.450591"><name><![CDATA[50kW Fastned in Eindhoven]]></name><desc><![CDATA[Fastned Limburglaan, 5652 AC Eindhoven - Lodewijkstraat 34, 6 x CHAdeMO 50kW, 6 x Combo Typ 2 (CCS) EU 50kW, 24/7]]></desc></wpt><wpt lat="51.820292" lon="5.852114"><name><![CDATA[50kW Fastned in Nijmegen]]></name><desc><![CDATA[Albert Heijn XL, 6533 BP Nijmegen - Sint Jacobslaan 61, 2 x Combo Typ 2 (CCS) EU 50kW, 2 x CHAdeMO 50kW, 24/7]]></desc></wpt><wpt lat="53.029239" lon="6.020487"><name><![CDATA[50kW Fastned in Terwispel]]></name><desc><![CDATA[Fastned De Wâlden, 8407 EB Terwispel - Rijksweg A7 Nr. 12, 2 x Combo Typ 2 (CCS) EU 50kW, 2 x CHAdeMO 50kW, 2 x Typ 2 Stecker 43kW, 24/7]]></desc></wpt><wpt lat="52.292050" lon="4.945531"><name><![CDATA[300kW Fastned in Amsterdam]]></name><desc><![CDATA[Foodstrip Autobahnkreuz Holendrecht, 1105 BN Amsterdam - Tafelbergweg 10, 10 x Combo Typ 2 (CCS) EU 300kW, 4 x CHAdeMO 50kW, 24/7]]></desc></wpt><wpt lat="52.309199" lon="13.443734"><name><![CDATA[150kW Fastned in Blankenfelde-Mahlow]]></name><desc><![CDATA[Fastned Van der Valk Hotel Berlin Brandenburg, 15827 Blankenfelde-Mahlow - Eschenweg 18, 4 x Combo Typ 2 (CCS) EU 150kW, 1 x CHAdeMO 50kW, 24/7]]></desc></wpt><wpt lat="51.896516" lon="4.539109"><name><![CDATA[300kW Fastned in Rotterdam]]></name><desc><![CDATA[Fastned Stadionweg, 3078ZS Rotterdam - Stadionweg, 2 x CHAdeMO 60kW, 4 x Combo Typ 2 (CCS) EU 300kW, 24/7]]></desc></wpt><wpt lat="54.974215" lon="-1.625294"><name><![CDATA[175kW Fastned in Newcastle upon Tyne]]></name><desc><![CDATA[Fastned Wellington Street, NE4 5SX Newcastle upon Tyne - Wellington Street 61, 2 x Combo Typ 2 (CCS) EU 175kW, 4 x Typ 2 Stecker 43kW, 4 x CHAdeMO 50kW, 4 x Combo Typ 2 (CCS) EU 50kW, 24/7]]></desc></wpt><wpt lat="51.324296" lon="5.223032"><name><![CDATA[300kW Fastned in Bladel]]></name><desc><![CDATA[Fastned De Beerze, 5531 NZ Bladel - A67, 4 x Combo Typ 2 (CCS) EU 300kW, 2 x CHAdeMO 50kW, 24/7]]></desc></wpt><wpt lat="51.321610" lon="5.219856"><name><![CDATA[300kW Fastned in Bladel]]></name><desc><![CDATA[Fastned Het Goor, 5531 NZ Bladel - A67, 4 x Combo Typ 2 (CCS) EU 300kW, 2 x CHAdeMO 50kW, 24/7]]></desc></wpt><wpt lat="51.192129" lon="6.936015"><name><![CDATA[300kW Fastned in Hilden]]></name><desc><![CDATA[Seed & Greet Fastned Ladepark Kreuz Hilden, 40724 Hilden - Zum Jägerhof, 8 x Combo Typ 2 (CCS) EU 300kW, 4 x CHAdeMO 50kW, 24/7]]></desc></wpt><wpt lat="55.049638" lon="-1.450731"><name><![CDATA[50kW Fastned in Whitley Bay]]></name><desc><![CDATA[Fastned Whitley Bay Car Park, NE26 1QQ Whitley Bay - Bournemouth Gardens, 2 x Typ 2 Stecker 43kW, 2 x Combo Typ 2 (CCS) EU 50kW, 2 x CHAdeMO 50kW, 24/7]]></desc></wpt><wpt lat="55.128017" lon="-1.509161"><name><![CDATA[50kW Fastned in Blyth]]></name><desc><![CDATA[Fastned Keel Row Shopping Centre, NE24 1AX Blyth - Simpson Street, 2 x Typ 2 Stecker 43kW, 2 x Combo Typ 2 (CCS) EU 50kW, 2 x CHAdeMO 50kW, 24/7]]></desc></wpt><wpt lat="54.912130" lon="-1.520807"><name><![CDATA[50kW Fastned in Washington]]></name><desc><![CDATA[Fastned Speculation Place Car Park, NE37 2AX Washington - Spout Lane, 2 x Typ 2 Stecker 43kW, 2 x Combo Typ 2 (CCS) EU 50kW, 2 x CHAdeMO 50kW, 24/7]]></desc></wpt><wpt lat="51.205559" lon="2.871214"><name><![CDATA[300kW Fastned in Oostende]]></name><desc><![CDATA[Fastned Oostende Luchthaven, 8400 Oostende - Nieuwpoortsesteenweg 889, 4 x Combo Typ 2 (CCS) EU 300kW, 2 x CHAdeMO 60kW, 24/7]]></desc></wpt><wpt lat="51.404326" lon="5.811079"><name><![CDATA[300kW Fastned in Asten]]></name><desc><![CDATA[Fastned Het Gevlocht, 5721 KN Asten - A67, 4 x Combo Typ 2 (CCS) EU 300kW, 2 x CHAdeMO 50kW, 24/7]]></desc></wpt><wpt lat="52.752984" lon="6.186848"><name><![CDATA[300kW Fastned in Nijeveen]]></name><desc><![CDATA[Fastned Bovenboer, 7948 LE Nijeveen - A32, 4 x Combo Typ 2 (CCS) EU 300kW, 2 x CHAdeMO 50kW, 24/7]]></desc></wpt><wpt lat="53.051378" lon="5.553783"><name><![CDATA[300kW Fastned in Wolsum]]></name><desc><![CDATA[Fastned Laerd, 8774 PE Wolsum - A7, 4 x Combo Typ 2 (CCS) EU 300kW, 2 x CHAdeMO 50kW, 24/7]]></desc></wpt><wpt lat="56.480909" lon="-3.016144"><name><![CDATA[50kW Fastned in Dundee]]></name><desc><![CDATA[Fastned Angus Court, DD2 3QT Dundee - Broomhill Road, 2 x Combo Typ 2 (CCS) EU 50kW, 2 x CHAdeMO 50kW, 1 x Typ 2 Stecker 43kW, 24/7]]></desc></wpt><wpt lat="50.571399" lon="8.690089"><name><![CDATA[50kW Fastned Deutschland GmbH & Co. KG in Gießen]]></name><desc><![CDATA[REWE Center, 35394 Gießen - Fernie-Straße 4, 8 x Combo Typ 2 (CCS) EU 50kW, 8 x CHAdeMO 50kW, 24/7]]></desc></wpt><wpt lat="47.380561" lon="8.109196"><name><![CDATA[300kW Fastned in Suhr]]></name><desc><![CDATA[Fastned Rastplatz, 5034 Suhr - A1, 4 x Combo Typ 2 (CCS) EU 300kW, 2 x CHAdeMO 50kW, 24/7]]></desc></wpt><wpt lat="47.392626" lon="8.160224"><name><![CDATA[300kW Fastned in Lenzburg]]></name><desc><![CDATA[Fastned Rastplatz, 5600 Lenzburg - A1, 4 x Combo Typ 2 (CCS) EU 300kW, 2 x CHAdeMO 50kW, 24/7]]></desc></wpt><wpt lat="50.147053" lon="8.609033"><name><![CDATA[50kW Fastned Deutschland GmbH & Co. KG in Frankfurt am Main]]></name><desc><![CDATA[REWE Center Eugen-Hartmann-Straße, 60488 Frankfurt am Main - Eugen-Hartmann-Straße 7, 4 x Combo Typ 2 (CCS) EU 50kW, 4 x CHAdeMO 50kW, 24/7]]></desc></wpt><wpt lat="50.921880" lon="3.150364"><name><![CDATA[50kW Fastned Belgium BVBA in Roeselare]]></name><desc><![CDATA[R. Plaza, 8800 Roeselare - Koestraat 181, 2 x Combo Typ 2 (CCS) EU 50kW, 2 x CHAdeMO 50kW, 24/7]]></desc></wpt></gpx><!--8.9563 seconds, 116 MB, 134 locations-->